{
  "GIS_POI": {
    "objectid": "objectid",
    "name": "nombre_pdi",
    "typecode": "tipo_pdi",
    "address": "pdi_dba",
    "principal": "principal",
    "telephone": "telephone",
    "fax": "fax",
    "note": "note",
    "districtcode": "districtcode",
    "alias": "alias",
    "position": "position",
    "updatetime": "updatetime",
    "class": "class",
    "shape": "shape"
  },
  "GIS_NAME": {
    "objectid": "objectid",
    "address": "pdi_dba",
    "name": "nombre_pdi",
    "citycode": "tipo_pdi",
    "admin1": "admin1",
    "admin2": "admin2",
    "admin3": "admin3",
    "admin4": "admin4",
    "zoneblock": "zoneblock",
    "poicode": "tipo_pdi",
    "poiname": "pdi_dba",
    "principal": "principal",
    "telphone": "telphone",
    "note": "note",
    "buildingaddress": "buildingaddress",
    "districtcode": "admin2",
    "longitude": "longitude",
    "latitude": "latitude",
    "shape": "shape"
  },
  "GIS_CAMERA": {
    "objectid": "objectid",
    "name": "name",
    "vendorcode": "vendorcode",
    "devicecode": "devicecode",
    "isenable": "isenable",
    "installer": "installer",
    "installationtime": "installationtime",
    "telephone": "telephone",
    "address": "address",
    "longitude": "longitude",
    "latitude": "latitude",
    "shape": "shape"
  },
  "GIS_JURISDICTION_CENTER": {
    "objectid": "objectid",
    "name": "descripcio",
    "districtcode": "coleccion",
    "code": "code",
    "updatetime": "updatetime",
    "shape": "shape"
  },
  "GIS_REGIONALISM_NATION": {
    "objectid": "objectid",
    "name": "name",
    "districtcode": "districtcode",
    "updatetime": "updatetime",
    "source": "source",
    "shape": "shape"
  },
  "GIS_REGIONALISM_PROVINCE": {
    "objectid": "objectid",
    "name": "name",
    "districtcode": "districtcode",
    "updatetime": "updatetime",
    "source": "source",
    "shape": "shape"
  },
  "GIS_REGIONALISM_CITY": {
    "objectid": "objectid",
    "province": "province",
    "name": "name",
    "districtcode": "districtcode",
    "class": "class",
    "updatetime": "updatetime",
    "source": "source",
    "shape": "shape"
  },
  "GIS_REGIONALISM_REGION": {
    "objectid": "objectid",
    "province": "province",
    "city": "city",
    "name": "name",
    "districtcode": "districtcode",
    "updatetime": "updatetime",
    "source": "source",
    "shape": "shape"
  },
  "GIS_REGIONALISM_COUNTY": {
    "objectid": "objectid",
    "province": "province",
    "city": "city",
    "region": "region",
    "name": "name",
    "districtcode": "districtcode",
    "class": "class",
    "updatetime": "updatetime",
    "source": "source",
    "shape": "shape"
  },
  "OTHER": {
    "facility_poi_typecode": "tipo_pdi1111"
  }
}
